[{"pk": 1549, "model": "geo.location", "fields": {"name": "Washington", "recruit": 0, "lon": "-77.0363658", "zipcode": "20001", "pop": 552433, "st": "DC", "county": "District of Columbia", "state": "District Of Columbia", "lat": "38.8951118", "timezone": "America/New_York"}}, {"pk": 1550, "model": "geo.location", "fields": {"name": "Washington", "recruit": 0, "lon": "-77.0363658", "zipcode": "20002", "pop": 552433, "st": "DC", "county": "District of Columbia", "state": "District Of Columbia", "lat": "38.8951118", "timezone": "America/New_York"}}, {"pk": 1551, "model": "geo.location", "fields": {"name": "Washington", "recruit": 0, "lon": "-77.0363658", "zipcode": "20003", "pop": 552433, "st": "DC", "county": "District of Columbia", "state": "District Of Columbia", "lat": "38.8951118", "timezone": "America/New_York"}}, {"pk": 1552, "model": "geo.location", "fields": {"name": "Washington", "recruit": 0, "lon": "-77.0363658", "zipcode": "20004", "pop": 552433, "st": "DC", "county": "District of Columbia", "state": "District Of Columbia", "lat": "38.8951118", "timezone": "America/New_York"}}, {"pk": 1553, "model": "geo.location", "fields": {"name": "Washington", "recruit": 0, "lon": "-77.0363658", "zipcode": "20005", "pop": 552433, "st": "DC", "county": "District of Columbia", "state": "District Of Columbia", "lat": "38.8951118", "timezone": "America/New_York"}}, {"pk": 1554, "model": "geo.location", "fields": {"name": "Washington", "recruit": 0, "lon": "-77.0363658", "zipcode": "20006", "pop": 552433, "st": "DC", "county": "District of Columbia", "state": "District Of Columbia", "lat": "38.8951118", "timezone": "America/New_York"}}, {"pk": 1555, "model": "geo.location", "fields": {"name": "Washington", "recruit": 0, "lon": "-77.0363658", "zipcode": "20007", "pop": 552433, "st": "DC", "county": "District of Columbia", "state": "District Of Columbia", "lat": "38.8951118", "timezone": "America/New_York"}}, {"pk": 1556, "model": "geo.location", "fields": {"name": "Washington", "recruit": 0, "lon": "-77.0363658", "zipcode": "20008", "pop": 552433, "st": "DC", "county": "District of Columbia", "state": "District Of Columbia", "lat": "38.8951118", "timezone": "America/New_York"}}, {"pk": 1557, "model": "geo.location", "fields": {"name": "Washington", "recruit": 0, "lon": "-77.0363658", "zipcode": "20009", "pop": 552433, "st": "DC", "county": "District of Columbia", "state": "District Of Columbia", "lat": "38.8951118", "timezone": "America/New_York"}}, {"pk": 1558, "model": "geo.location", "fields": {"name": "Washington", "recruit": 0, "lon": "-77.0363658", "zipcode": "20010", "pop": 552433, "st": "DC", "county": "District of Columbia", "state": "District Of Columbia", "lat": "38.8951118", "timezone": "America/New_York"}}, {"pk": 1559, "model": "geo.location", "fields": {"name": "Washington", "recruit": 0, "lon": "-77.0363658", "zipcode": "20011", "pop": 552433, "st": "DC", "county": "District of Columbia", "state": "District Of Columbia", "lat": "38.8951118", "timezone": "America/New_York"}}, {"pk": 1560, "model": "geo.location", "fields": {"name": "Washington", "recruit": 0, "lon": "-77.0363658", "zipcode": "20012", "pop": 552433, "st": "DC", "county": "District of Columbia", "state": "District Of Columbia", "lat": "38.8951118", "timezone": "America/New_York"}}, {"pk": 1561, "model": "geo.location", "fields": {"name": "Washington", "recruit": 0, "lon": "-77.0363658", "zipcode": "20013", "pop": 552433, "st": "DC", "county": "District of Columbia", "state": "District Of Columbia", "lat": "38.8951118", "timezone": "America/New_York"}}, {"pk": 1562, "model": "geo.location", "fields": {"name": "Washington", "recruit": 0, "lon": "-77.0363658", "zipcode": "20015", "pop": 552433, "st": "DC", "county": "District of Columbia", "state": "District Of Columbia", "lat": "38.8951118", "timezone": "America/New_York"}}, {"pk": 1563, "model": "geo.location", "fields": {"name": "Washington", "recruit": 0, "lon": "-77.0363658", "zipcode": "20016", "pop": 552433, "st": "DC", "county": "District of Columbia", "state": "District Of Columbia", "lat": "38.8951118", "timezone": "America/New_York"}}, {"pk": 1564, "model": "geo.location", "fields": {"name": "Washington", "recruit": 0, "lon": "-77.0363658", "zipcode": "20017", "pop": 552433, "st": "DC", "county": "District of Columbia", "state": "District Of Columbia", "lat": "38.8951118", "timezone": "America/New_York"}}, {"pk": 1565, "model": "geo.location", "fields": {"name": "Washington", "recruit": 0, "lon": "-77.0363658", "zipcode": "20018", "pop": 552433, "st": "DC", "county": "District of Columbia", "state": "District Of Columbia", "lat": "38.8951118", "timezone": "America/New_York"}}, {"pk": 1566, "model": "geo.location", "fields": {"name": "Washington", "recruit": 0, "lon": "-77.0363658", "zipcode": "20019", "pop": 552433, "st": "DC", "county": "District of Columbia", "state": "District Of Columbia", "lat": "38.8951118", "timezone": "America/New_York"}}, {"pk": 1567, "model": "geo.location", "fields": {"name": "Washington", "recruit": 0, "lon": "-77.0363658", "zipcode": "20020", "pop": 552433, "st": "DC", "county": "District of Columbia", "state": "District Of Columbia", "lat": "38.8951118", "timezone": "America/New_York"}}, {"pk": 1568, "model": "geo.location", "fields": {"name": "Washington", "recruit": 0, "lon": "-77.0363658", "zipcode": "20024", "pop": 552433, "st": "DC", "county": "District of Columbia", "state": "District Of Columbia", "lat": "38.8951118", "timezone": "America/New_York"}}, {"pk": 1569, "model": "geo.location", "fields": {"name": "Washington", "recruit": 0, "lon": "-77.0363658", "zipcode": "20026", "pop": 552433, "st": "DC", "county": "District of Columbia", "state": "District Of Columbia", "lat": "38.8951118", "timezone": "America/New_York"}}, {"pk": 1570, "model": "geo.location", "fields": {"name": "Washington", "recruit": 0, "lon": "-77.0363658", "zipcode": "20029", "pop": 552433, "st": "DC", "county": "District of Columbia", "state": "District Of Columbia", "lat": "38.8951118", "timezone": "America/New_York"}}, {"pk": 1571, "model": "geo.location", "fields": {"name": "Washington", "recruit": 0, "lon": "-77.0363658", "zipcode": "20030", "pop": 552433, "st": "DC", "county": "District of Columbia", "state": "District Of Columbia", "lat": "38.8951118", "timezone": "America/New_York"}}, {"pk": 1572, "model": "geo.location", "fields": {"name": "Washington", "recruit": 0, "lon": "-77.0363658", "zipcode": "20032", "pop": 552433, "st": "DC", "county": "District of Columbia", "state": "District Of Columbia", "lat": "38.8951118", "timezone": "America/New_York"}}, {"pk": 1573, "model": "geo.location", "fields": {"name": "Washington", "recruit": 0, "lon": "-77.0363658", "zipcode": "20033", "pop": 552433, "st": "DC", "county": "District of Columbia", "state": "District Of Columbia", "lat": "38.8951118", "timezone": "America/New_York"}}, {"pk": 1574, "model": "geo.location", "fields": {"name": "Washington", "recruit": 0, "lon": "-77.0363658", "zipcode": "20035", "pop": 552433, "st": "DC", "county": "District of Columbia", "state": "District Of Columbia", "lat": "38.8951118", "timezone": "America/New_York"}}, {"pk": 1575, "model": "geo.location", "fields": {"name": "Washington", "recruit": 0, "lon": "-77.0363658", "zipcode": "20036", "pop": 552433, "st": "DC", "county": "District of Columbia", "state": "District Of Columbia", "lat": "38.8951118", "timezone": "America/New_York"}}, {"pk": 1576, "model": "geo.location", "fields": {"name": "Washington", "recruit": 0, "lon": "-77.0363658", "zipcode": "20037", "pop": 552433, "st": "DC", "county": "District of Columbia", "state": "District Of Columbia", "lat": "38.8951118", "timezone": "America/New_York"}}, {"pk": 1577, "model": "geo.location", "fields": {"name": "Washington", "recruit": 0, "lon": "-77.0363658", "zipcode": "20038", "pop": 552433, "st": "DC", "county": "District of Columbia", "state": "District Of Columbia", "lat": "38.8951118", "timezone": "America/New_York"}}, {"pk": 1578, "model": "geo.location", "fields": {"name": "Washington", "recruit": 0, "lon": "-77.0363658", "zipcode": "20039", "pop": 552433, "st": "DC", "county": "District of Columbia", "state": "District Of Columbia", "lat": "38.8951118", "timezone": "America/New_York"}}, {"pk": 1579, "model": "geo.location", "fields": {"name": "Washington", "recruit": 0, "lon": "-77.0363658", "zipcode": "20040", "pop": 552433, "st": "DC", "county": "District of Columbia", "state": "District Of Columbia", "lat": "38.8951118", "timezone": "America/New_York"}}, {"pk": 1580, "model": "geo.location", "fields": {"name": "Washington", "recruit": 0, "lon": "-77.0363658", "zipcode": "20041", "pop": 552433, "st": "DC", "county": "District of Columbia", "state": "District Of Columbia", "lat": "38.8951118", "timezone": "America/New_York"}}, {"pk": 1581, "model": "geo.location", "fields": {"name": "Washington", "recruit": 0, "lon": "-77.0363658", "zipcode": "20042", "pop": 552433, "st": "DC", "county": "District of Columbia", "state": "District Of Columbia", "lat": "38.8951118", "timezone": "America/New_York"}}, {"pk": 1582, "model": "geo.location", "fields": {"name": "Washington", "recruit": 0, "lon": "-77.0363658", "zipcode": "20043", "pop": 552433, "st": "DC", "county": "District of Columbia", "state": "District Of Columbia", "lat": "38.8951118", "timezone": "America/New_York"}}, {"pk": 1583, "model": "geo.location", "fields": {"name": "Washington", "recruit": 0, "lon": "-77.0363658", "zipcode": "20044", "pop": 552433, "st": "DC", "county": "District of Columbia", "state": "District Of Columbia", "lat": "38.8951118", "timezone": "America/New_York"}}, {"pk": 1584, "model": "geo.location", "fields": {"name": "Washington", "recruit": 0, "lon": "-77.0363658", "zipcode": "20045", "pop": 552433, "st": "DC", "county": "District of Columbia", "state": "District Of Columbia", "lat": "38.8951118", "timezone": "America/New_York"}}, {"pk": 1585, "model": "geo.location", "fields": {"name": "Washington", "recruit": 0, "lon": "-77.0363658", "zipcode": "20046", "pop": 552433, "st": "DC", "county": "District of Columbia", "state": "District Of Columbia", "lat": "38.8951118", "timezone": "America/New_York"}}, {"pk": 1586, "model": "geo.location", "fields": {"name": "Washington", "recruit": 0, "lon": "-77.0363658", "zipcode": "20047", "pop": 552433, "st": "DC", "county": "District of Columbia", "state": "District Of Columbia", "lat": "38.8951118", "timezone": "America/New_York"}}, {"pk": 1587, "model": "geo.location", "fields": {"name": "Washington", "recruit": 0, "lon": "-77.0363658", "zipcode": "20049", "pop": 552433, "st": "DC", "county": "District of Columbia", "state": "District Of Columbia", "lat": "38.8951118", "timezone": "America/New_York"}}, {"pk": 1588, "model": "geo.location", "fields": {"name": "Washington", "recruit": 0, "lon": "-77.0363658", "zipcode": "20050", "pop": 552433, "st": "DC", "county": "District of Columbia", "state": "District Of Columbia", "lat": "38.8951118", "timezone": "America/New_York"}}, {"pk": 1589, "model": "geo.location", "fields": {"name": "Washington", "recruit": 0, "lon": "-77.0363658", "zipcode": "20051", "pop": 552433, "st": "DC", "county": "District of Columbia", "state": "District Of Columbia", "lat": "38.8951118", "timezone": "America/New_York"}}, {"pk": 1590, "model": "geo.location", "fields": {"name": "Washington", "recruit": 0, "lon": "-77.0363658", "zipcode": "20052", "pop": 552433, "st": "DC", "county": "District of Columbia", "state": "District Of Columbia", "lat": "38.8951118", "timezone": "America/New_York"}}, {"pk": 1591, "model": "geo.location", "fields": {"name": "Washington", "recruit": 0, "lon": "-77.0363658", "zipcode": "20053", "pop": 552433, "st": "DC", "county": "District of Columbia", "state": "District Of Columbia", "lat": "38.8951118", "timezone": "America/New_York"}}, {"pk": 1592, "model": "geo.location", "fields": {"name": "Washington", "recruit": 0, "lon": "-77.0363658", "zipcode": "20055", "pop": 552433, "st": "DC", "county": "District of Columbia", "state": "District Of Columbia", "lat": "38.8951118", "timezone": "America/New_York"}}, {"pk": 1593, "model": "geo.location", "fields": {"name": "Washington", "recruit": 0, "lon": "-77.0363658", "zipcode": "20056", "pop": 552433, "st": "DC", "county": "District of Columbia", "state": "District Of Columbia", "lat": "38.8951118", "timezone": "America/New_York"}}, {"pk": 1594, "model": "geo.location", "fields": {"name": "Washington", "recruit": 0, "lon": "-77.0363658", "zipcode": "20057", "pop": 552433, "st": "DC", "county": "District of Columbia", "state": "District Of Columbia", "lat": "38.8951118", "timezone": "America/New_York"}}, {"pk": 1595, "model": "geo.location", "fields": {"name": "Washington", "recruit": 0, "lon": "-77.0363658", "zipcode": "20058", "pop": 552433, "st": "DC", "county": "District of Columbia", "state": "District Of Columbia", "lat": "38.8951118", "timezone": "America/New_York"}}, {"pk": 1596, "model": "geo.location", "fields": {"name": "Washington", "recruit": 0, "lon": "-77.0363658", "zipcode": "20059", "pop": 552433, "st": "DC", "county": "District of Columbia", "state": "District Of Columbia", "lat": "38.8951118", "timezone": "America/New_York"}}, {"pk": 1597, "model": "geo.location", "fields": {"name": "Washington", "recruit": 0, "lon": "-77.0363658", "zipcode": "20060", "pop": 552433, "st": "DC", "county": "District of Columbia", "state": "District Of Columbia", "lat": "38.8951118", "timezone": "America/New_York"}}, {"pk": 1598, "model": "geo.location", "fields": {"name": "Washington", "recruit": 0, "lon": "-77.0363658", "zipcode": "20061", "pop": 552433, "st": "DC", "county": "District of Columbia", "state": "District Of Columbia", "lat": "38.8951118", "timezone": "America/New_York"}}, {"pk": 1599, "model": "geo.location", "fields": {"name": "Washington", "recruit": 0, "lon": "-77.0363658", "zipcode": "20062", "pop": 552433, "st": "DC", "county": "District of Columbia", "state": "District Of Columbia", "lat": "38.8951118", "timezone": "America/New_York"}}, {"pk": 1600, "model": "geo.location", "fields": {"name": "Washington", "recruit": 0, "lon": "-77.0363658", "zipcode": "20063", "pop": 552433, "st": "DC", "county": "District of Columbia", "state": "District Of Columbia", "lat": "38.8951118", "timezone": "America/New_York"}}, {"pk": 1601, "model": "geo.location", "fields": {"name": "Washington", "recruit": 0, "lon": "-77.0363658", "zipcode": "20064", "pop": 552433, "st": "DC", "county": "District of Columbia", "state": "District Of Columbia", "lat": "38.8951118", "timezone": "America/New_York"}}, {"pk": 1602, "model": "geo.location", "fields": {"name": "Washington", "recruit": 0, "lon": "-77.0363658", "zipcode": "20065", "pop": 552433, "st": "DC", "county": "District of Columbia", "state": "District Of Columbia", "lat": "38.8951118", "timezone": "America/New_York"}}, {"pk": 1603, "model": "geo.location", "fields": {"name": "Washington", "recruit": 0, "lon": "-77.0363658", "zipcode": "20066", "pop": 552433, "st": "DC", "county": "District of Columbia", "state": "District Of Columbia", "lat": "38.8951118", "timezone": "America/New_York"}}, {"pk": 1604, "model": "geo.location", "fields": {"name": "Washington", "recruit": 0, "lon": "-77.0363658", "zipcode": "20067", "pop": 552433, "st": "DC", "county": "District of Columbia", "state": "District Of Columbia", "lat": "38.8951118", "timezone": "America/New_York"}}, {"pk": 1605, "model": "geo.location", "fields": {"name": "Washington", "recruit": 0, "lon": "-77.0363658", "zipcode": "20068", "pop": 552433, "st": "DC", "county": "District of Columbia", "state": "District Of Columbia", "lat": "38.8951118", "timezone": "America/New_York"}}, {"pk": 1606, "model": "geo.location", "fields": {"name": "Washington", "recruit": 0, "lon": "-77.0363658", "zipcode": "20069", "pop": 552433, "st": "DC", "county": "District of Columbia", "state": "District Of Columbia", "lat": "38.8951118", "timezone": "America/New_York"}}, {"pk": 1607, "model": "geo.location", "fields": {"name": "Washington", "recruit": 0, "lon": "-77.0363658", "zipcode": "20070", "pop": 552433, "st": "DC", "county": "District of Columbia", "state": "District Of Columbia", "lat": "38.8951118", "timezone": "America/New_York"}}, {"pk": 1608, "model": "geo.location", "fields": {"name": "Washington", "recruit": 0, "lon": "-77.0363658", "zipcode": "20071", "pop": 552433, "st": "DC", "county": "District of Columbia", "state": "District Of Columbia", "lat": "38.8951118", "timezone": "America/New_York"}}, {"pk": 1609, "model": "geo.location", "fields": {"name": "Washington", "recruit": 0, "lon": "-77.0363658", "zipcode": "20073", "pop": 552433, "st": "DC", "county": "District of Columbia", "state": "District Of Columbia", "lat": "38.8951118", "timezone": "America/New_York"}}, {"pk": 1610, "model": "geo.location", "fields": {"name": "Washington", "recruit": 0, "lon": "-77.0363658", "zipcode": "20074", "pop": 552433, "st": "DC", "county": "District of Columbia", "state": "District Of Columbia", "lat": "38.8951118", "timezone": "America/New_York"}}, {"pk": 1611, "model": "geo.location", "fields": {"name": "Washington", "recruit": 0, "lon": "-77.0363658", "zipcode": "20075", "pop": 552433, "st": "DC", "county": "District of Columbia", "state": "District Of Columbia", "lat": "38.8951118", "timezone": "America/New_York"}}, {"pk": 1612, "model": "geo.location", "fields": {"name": "Washington", "recruit": 0, "lon": "-77.0363658", "zipcode": "20076", "pop": 552433, "st": "DC", "county": "District of Columbia", "state": "District Of Columbia", "lat": "38.8951118", "timezone": "America/New_York"}}, {"pk": 1613, "model": "geo.location", "fields": {"name": "Washington", "recruit": 0, "lon": "-77.0363658", "zipcode": "20077", "pop": 552433, "st": "DC", "county": "District of Columbia", "state": "District Of Columbia", "lat": "38.8951118", "timezone": "America/New_York"}}, {"pk": 1614, "model": "geo.location", "fields": {"name": "Washington", "recruit": 0, "lon": "-77.0363658", "zipcode": "20078", "pop": 552433, "st": "DC", "county": "District of Columbia", "state": "District Of Columbia", "lat": "38.8951118", "timezone": "America/New_York"}}, {"pk": 1615, "model": "geo.location", "fields": {"name": "Washington", "recruit": 0, "lon": "-77.0363658", "zipcode": "20080", "pop": 552433, "st": "DC", "county": "District of Columbia", "state": "District Of Columbia", "lat": "38.8951118", "timezone": "America/New_York"}}, {"pk": 1616, "model": "geo.location", "fields": {"name": "Washington", "recruit": 0, "lon": "-77.0363658", "zipcode": "20081", "pop": 552433, "st": "DC", "county": "District of Columbia", "state": "District Of Columbia", "lat": "38.8951118", "timezone": "America/New_York"}}, {"pk": 1617, "model": "geo.location", "fields": {"name": "Washington", "recruit": 0, "lon": "-77.0363658", "zipcode": "20082", "pop": 552433, "st": "DC", "county": "District of Columbia", "state": "District Of Columbia", "lat": "38.8951118", "timezone": "America/New_York"}}, {"pk": 1618, "model": "geo.location", "fields": {"name": "Washington", "recruit": 0, "lon": "-77.0363658", "zipcode": "20088", "pop": 552433, "st": "DC", "county": "District of Columbia", "state": "District Of Columbia", "lat": "38.8951118", "timezone": "America/New_York"}}, {"pk": 1619, "model": "geo.location", "fields": {"name": "Washington", "recruit": 0, "lon": "-77.0363658", "zipcode": "20090", "pop": 552433, "st": "DC", "county": "District of Columbia", "state": "District Of Columbia", "lat": "38.8951118", "timezone": "America/New_York"}}, {"pk": 1620, "model": "geo.location", "fields": {"name": "Washington", "recruit": 0, "lon": "-77.0363658", "zipcode": "20091", "pop": 552433, "st": "DC", "county": "District of Columbia", "state": "District Of Columbia", "lat": "38.8951118", "timezone": "America/New_York"}}, {"pk": 1621, "model": "geo.location", "fields": {"name": "Washington", "recruit": 0, "lon": "-77.0363658", "zipcode": "20097", "pop": 552433, "st": "DC", "county": "District of Columbia", "state": "District Of Columbia", "lat": "38.8951118", "timezone": "America/New_York"}}, {"pk": 1622, "model": "geo.location", "fields": {"name": "Washington", "recruit": 0, "lon": "-77.0363658", "zipcode": "20098", "pop": 552433, "st": "DC", "county": "District of Columbia", "state": "District Of Columbia", "lat": "38.8951118", "timezone": "America/New_York"}}, {"pk": 1623, "model": "geo.location", "fields": {"name": "Washington", "recruit": 0, "lon": "-77.0363658", "zipcode": "20099", "pop": 552433, "st": "DC", "county": "District of Columbia", "state": "District Of Columbia", "lat": "38.8951118", "timezone": "America/New_York"}}, {"pk": 1624, "model": "geo.location", "fields": {"name": "Washington", "recruit": 0, "lon": "-77.0363658", "zipcode": "20201", "pop": 552433, "st": "DC", "county": "District of Columbia", "state": "District Of Columbia", "lat": "38.8951118", "timezone": "America/New_York"}}, {"pk": 1625, "model": "geo.location", "fields": {"name": "Washington", "recruit": 0, "lon": "-77.0363658", "zipcode": "20202", "pop": 552433, "st": "DC", "county": "District of Columbia", "state": "District Of Columbia", "lat": "38.8951118", "timezone": "America/New_York"}}, {"pk": 1626, "model": "geo.location", "fields": {"name": "Washington", "recruit": 0, "lon": "-77.0363658", "zipcode": "20203", "pop": 552433, "st": "DC", "county": "District of Columbia", "state": "District Of Columbia", "lat": "38.8951118", "timezone": "America/New_York"}}, {"pk": 1627, "model": "geo.location", "fields": {"name": "Washington", "recruit": 0, "lon": "-77.0363658", "zipcode": "20204", "pop": 552433, "st": "DC", "county": "District of Columbia", "state": "District Of Columbia", "lat": "38.8951118", "timezone": "America/New_York"}}, {"pk": 1628, "model": "geo.location", "fields": {"name": "Washington", "recruit": 0, "lon": "-77.0363658", "zipcode": "20206", "pop": 552433, "st": "DC", "county": "District of Columbia", "state": "District Of Columbia", "lat": "38.8951118", "timezone": "America/New_York"}}, {"pk": 1629, "model": "geo.location", "fields": {"name": "Washington", "recruit": 0, "lon": "-77.0363658", "zipcode": "20207", "pop": 552433, "st": "DC", "county": "District of Columbia", "state": "District Of Columbia", "lat": "38.8951118", "timezone": "America/New_York"}}, {"pk": 1630, "model": "geo.location", "fields": {"name": "Washington", "recruit": 0, "lon": "-77.0363658", "zipcode": "20208", "pop": 552433, "st": "DC", "county": "District of Columbia", "state": "District Of Columbia", "lat": "38.8951118", "timezone": "America/New_York"}}, {"pk": 1631, "model": "geo.location", "fields": {"name": "Washington", "recruit": 0, "lon": "-77.0363658", "zipcode": "20210", "pop": 552433, "st": "DC", "county": "District of Columbia", "state": "District Of Columbia", "lat": "38.8951118", "timezone": "America/New_York"}}, {"pk": 1632, "model": "geo.location", "fields": {"name": "Washington", "recruit": 0, "lon": "-77.0363658", "zipcode": "20211", "pop": 552433, "st": "DC", "county": "District of Columbia", "state": "District Of Columbia", "lat": "38.8951118", "timezone": "America/New_York"}}, {"pk": 1633, "model": "geo.location", "fields": {"name": "Washington", "recruit": 0, "lon": "-77.0363658", "zipcode": "20212", "pop": 552433, "st": "DC", "county": "District of Columbia", "state": "District Of Columbia", "lat": "38.8951118", "timezone": "America/New_York"}}, {"pk": 1634, "model": "geo.location", "fields": {"name": "Washington", "recruit": 0, "lon": "-77.0363658", "zipcode": "20213", "pop": 552433, "st": "DC", "county": "District of Columbia", "state": "District Of Columbia", "lat": "38.8951118", "timezone": "America/New_York"}}, {"pk": 1635, "model": "geo.location", "fields": {"name": "Washington", "recruit": 0, "lon": "-77.0363658", "zipcode": "20214", "pop": 552433, "st": "DC", "county": "District of Columbia", "state": "District Of Columbia", "lat": "38.8951118", "timezone": "America/New_York"}}, {"pk": 1636, "model": "geo.location", "fields": {"name": "Washington", "recruit": 0, "lon": "-77.0363658", "zipcode": "20215", "pop": 552433, "st": "DC", "county": "District of Columbia", "state": "District Of Columbia", "lat": "38.8951118", "timezone": "America/New_York"}}, {"pk": 1637, "model": "geo.location", "fields": {"name": "Washington", "recruit": 0, "lon": "-77.0363658", "zipcode": "20216", "pop": 552433, "st": "DC", "county": "District of Columbia", "state": "District Of Columbia", "lat": "38.8951118", "timezone": "America/New_York"}}, {"pk": 1638, "model": "geo.location", "fields": {"name": "Washington", "recruit": 0, "lon": "-77.0363658", "zipcode": "20217", "pop": 552433, "st": "DC", "county": "District of Columbia", "state": "District Of Columbia", "lat": "38.8951118", "timezone": "America/New_York"}}, {"pk": 1639, "model": "geo.location", "fields": {"name": "Washington", "recruit": 0, "lon": "-77.0363658", "zipcode": "20218", "pop": 552433, "st": "DC", "county": "District of Columbia", "state": "District Of Columbia", "lat": "38.8951118", "timezone": "America/New_York"}}, {"pk": 1640, "model": "geo.location", "fields": {"name": "Washington", "recruit": 0, "lon": "-77.0363658", "zipcode": "20219", "pop": 552433, "st": "DC", "county": "District of Columbia", "state": "District Of Columbia", "lat": "38.8951118", "timezone": "America/New_York"}}, {"pk": 1641, "model": "geo.location", "fields": {"name": "Washington", "recruit": 0, "lon": "-77.0363658", "zipcode": "20220", "pop": 552433, "st": "DC", "county": "District of Columbia", "state": "District Of Columbia", "lat": "38.8951118", "timezone": "America/New_York"}}, {"pk": 1642, "model": "geo.location", "fields": {"name": "Washington", "recruit": 0, "lon": "-77.0363658", "zipcode": "20221", "pop": 552433, "st": "DC", "county": "District of Columbia", "state": "District Of Columbia", "lat": "38.8951118", "timezone": "America/New_York"}}, {"pk": 1643, "model": "geo.location", "fields": {"name": "Washington", "recruit": 0, "lon": "-77.0363658", "zipcode": "20222", "pop": 552433, "st": "DC", "county": "District of Columbia", "state": "District Of Columbia", "lat": "38.8951118", "timezone": "America/New_York"}}, {"pk": 1644, "model": "geo.location", "fields": {"name": "Washington", "recruit": 0, "lon": "-77.0363658", "zipcode": "20223", "pop": 552433, "st": "DC", "county": "District of Columbia", "state": "District Of Columbia", "lat": "38.8951118", "timezone": "America/New_York"}}, {"pk": 1645, "model": "geo.location", "fields": {"name": "Washington", "recruit": 0, "lon": "-77.0363658", "zipcode": "20224", "pop": 552433, "st": "DC", "county": "District of Columbia", "state": "District Of Columbia", "lat": "38.8951118", "timezone": "America/New_York"}}, {"pk": 1646, "model": "geo.location", "fields": {"name": "Washington", "recruit": 0, "lon": "-77.0363658", "zipcode": "20226", "pop": 552433, "st": "DC", "county": "District of Columbia", "state": "District Of Columbia", "lat": "38.8951118", "timezone": "America/New_York"}}, {"pk": 1647, "model": "geo.location", "fields": {"name": "Washington", "recruit": 0, "lon": "-77.0363658", "zipcode": "20227", "pop": 552433, "st": "DC", "county": "District of Columbia", "state": "District Of Columbia", "lat": "38.8951118", "timezone": "America/New_York"}}, {"pk": 1648, "model": "geo.location", "fields": {"name": "Washington", "recruit": 0, "lon": "-77.0363658", "zipcode": "20228", "pop": 552433, "st": "DC", "county": "District of Columbia", "state": "District Of Columbia", "lat": "38.8951118", "timezone": "America/New_York"}}, {"pk": 1649, "model": "geo.location", "fields": {"name": "Washington", "recruit": 0, "lon": "-77.0363658", "zipcode": "20229", "pop": 552433, "st": "DC", "county": "District of Columbia", "state": "District Of Columbia", "lat": "38.8951118", "timezone": "America/New_York"}}, {"pk": 1650, "model": "geo.location", "fields": {"name": "Washington", "recruit": 0, "lon": "-77.0363658", "zipcode": "20230", "pop": 552433, "st": "DC", "county": "District of Columbia", "state": "District Of Columbia", "lat": "38.8951118", "timezone": "America/New_York"}}, {"pk": 1651, "model": "geo.location", "fields": {"name": "Washington", "recruit": 0, "lon": "-77.0363658", "zipcode": "20231", "pop": 552433, "st": "DC", "county": "District of Columbia", "state": "District Of Columbia", "lat": "38.8951118", "timezone": "America/New_York"}}, {"pk": 1652, "model": "geo.location", "fields": {"name": "Washington", "recruit": 0, "lon": "-77.0363658", "zipcode": "20232", "pop": 552433, "st": "DC", "county": "District of Columbia", "state": "District Of Columbia", "lat": "38.8951118", "timezone": "America/New_York"}}, {"pk": 1653, "model": "geo.location", "fields": {"name": "Washington", "recruit": 0, "lon": "-77.0363658", "zipcode": "20233", "pop": 552433, "st": "DC", "county": "District of Columbia", "state": "District Of Columbia", "lat": "38.8951118", "timezone": "America/New_York"}}, {"pk": 1654, "model": "geo.location", "fields": {"name": "Washington", "recruit": 0, "lon": "-77.0363658", "zipcode": "20235", "pop": 552433, "st": "DC", "county": "District of Columbia", "state": "District Of Columbia", "lat": "38.8951118", "timezone": "America/New_York"}}, {"pk": 1655, "model": "geo.location", "fields": {"name": "Washington", "recruit": 0, "lon": "-77.0363658", "zipcode": "20238", "pop": 552433, "st": "DC", "county": "District of Columbia", "state": "District Of Columbia", "lat": "38.8951118", "timezone": "America/New_York"}}, {"pk": 1656, "model": "geo.location", "fields": {"name": "Washington", "recruit": 0, "lon": "-77.0363658", "zipcode": "20239", "pop": 552433, "st": "DC", "county": "District of Columbia", "state": "District Of Columbia", "lat": "38.8951118", "timezone": "America/New_York"}}, {"pk": 1657, "model": "geo.location", "fields": {"name": "Washington", "recruit": 0, "lon": "-77.0363658", "zipcode": "20240", "pop": 552433, "st": "DC", "county": "District of Columbia", "state": "District Of Columbia", "lat": "38.8951118", "timezone": "America/New_York"}}, {"pk": 1658, "model": "geo.location", "fields": {"name": "Washington", "recruit": 0, "lon": "-77.0363658", "zipcode": "20241", "pop": 552433, "st": "DC", "county": "District of Columbia", "state": "District Of Columbia", "lat": "38.8951118", "timezone": "America/New_York"}}, {"pk": 1659, "model": "geo.location", "fields": {"name": "Washington", "recruit": 0, "lon": "-77.0363658", "zipcode": "20242", "pop": 552433, "st": "DC", "county": "District of Columbia", "state": "District Of Columbia", "lat": "38.8951118", "timezone": "America/New_York"}}, {"pk": 1660, "model": "geo.location", "fields": {"name": "Washington", "recruit": 0, "lon": "-77.0363658", "zipcode": "20244", "pop": 552433, "st": "DC", "county": "District of Columbia", "state": "District Of Columbia", "lat": "38.8951118", "timezone": "America/New_York"}}, {"pk": 1661, "model": "geo.location", "fields": {"name": "Washington", "recruit": 0, "lon": "-77.0363658", "zipcode": "20245", "pop": 552433, "st": "DC", "county": "District of Columbia", "state": "District Of Columbia", "lat": "38.8951118", "timezone": "America/New_York"}}, {"pk": 1662, "model": "geo.location", "fields": {"name": "Washington", "recruit": 0, "lon": "-77.0363658", "zipcode": "20250", "pop": 552433, "st": "DC", "county": "District of Columbia", "state": "District Of Columbia", "lat": "38.8951118", "timezone": "America/New_York"}}, {"pk": 1663, "model": "geo.location", "fields": {"name": "Washington", "recruit": 0, "lon": "-77.0363658", "zipcode": "20251", "pop": 552433, "st": "DC", "county": "District of Columbia", "state": "District Of Columbia", "lat": "38.8951118", "timezone": "America/New_York"}}, {"pk": 1664, "model": "geo.location", "fields": {"name": "Washington", "recruit": 0, "lon": "-77.0363658", "zipcode": "20254", "pop": 552433, "st": "DC", "county": "District of Columbia", "state": "District Of Columbia", "lat": "38.8951118", "timezone": "America/New_York"}}, {"pk": 1665, "model": "geo.location", "fields": {"name": "Washington", "recruit": 0, "lon": "-77.0363658", "zipcode": "20260", "pop": 552433, "st": "DC", "county": "District of Columbia", "state": "District Of Columbia", "lat": "38.8951118", "timezone": "America/New_York"}}, {"pk": 1666, "model": "geo.location", "fields": {"name": "Washington", "recruit": 0, "lon": "-77.0363658", "zipcode": "20261", "pop": 552433, "st": "DC", "county": "District of Columbia", "state": "District Of Columbia", "lat": "38.8951118", "timezone": "America/New_York"}}, {"pk": 1667, "model": "geo.location", "fields": {"name": "Washington", "recruit": 0, "lon": "-77.0363658", "zipcode": "20262", "pop": 552433, "st": "DC", "county": "District of Columbia", "state": "District Of Columbia", "lat": "38.8951118", "timezone": "America/New_York"}}, {"pk": 1668, "model": "geo.location", "fields": {"name": "Washington", "recruit": 0, "lon": "-77.0363658", "zipcode": "20265", "pop": 552433, "st": "DC", "county": "District of Columbia", "state": "District Of Columbia", "lat": "38.8951118", "timezone": "America/New_York"}}, {"pk": 1669, "model": "geo.location", "fields": {"name": "Washington", "recruit": 0, "lon": "-77.0363658", "zipcode": "20266", "pop": 552433, "st": "DC", "county": "District of Columbia", "state": "District Of Columbia", "lat": "38.8951118", "timezone": "America/New_York"}}, {"pk": 1670, "model": "geo.location", "fields": {"name": "Washington", "recruit": 0, "lon": "-77.0363658", "zipcode": "20268", "pop": 552433, "st": "DC", "county": "District of Columbia", "state": "District Of Columbia", "lat": "38.8951118", "timezone": "America/New_York"}}, {"pk": 1671, "model": "geo.location", "fields": {"name": "Washington", "recruit": 0, "lon": "-77.0363658", "zipcode": "20270", "pop": 552433, "st": "DC", "county": "District of Columbia", "state": "District Of Columbia", "lat": "38.8951118", "timezone": "America/New_York"}}, {"pk": 1672, "model": "geo.location", "fields": {"name": "Washington", "recruit": 0, "lon": "-77.0363658", "zipcode": "20277", "pop": 552433, "st": "DC", "county": "District of Columbia", "state": "District Of Columbia", "lat": "38.8951118", "timezone": "America/New_York"}}, {"pk": 1673, "model": "geo.location", "fields": {"name": "Washington", "recruit": 0, "lon": "-77.0363658", "zipcode": "20289", "pop": 552433, "st": "DC", "county": "District of Columbia", "state": "District Of Columbia", "lat": "38.8951118", "timezone": "America/New_York"}}, {"pk": 1674, "model": "geo.location", "fields": {"name": "Washington", "recruit": 0, "lon": "-77.0363658", "zipcode": "20299", "pop": 552433, "st": "DC", "county": "District of Columbia", "state": "District Of Columbia", "lat": "38.8951118", "timezone": "America/New_York"}}, {"pk": 1675, "model": "geo.location", "fields": {"name": "Washington", "recruit": 0, "lon": "-77.0363658", "zipcode": "20301", "pop": 552433, "st": "DC", "county": "District of Columbia", "state": "District Of Columbia", "lat": "38.8951118", "timezone": "America/New_York"}}, {"pk": 1676, "model": "geo.location", "fields": {"name": "Washington", "recruit": 0, "lon": "-77.0363658", "zipcode": "20303", "pop": 552433, "st": "DC", "county": "District of Columbia", "state": "District Of Columbia", "lat": "38.8951118", "timezone": "America/New_York"}}, {"pk": 1677, "model": "geo.location", "fields": {"name": "Washington", "recruit": 0, "lon": "-77.0363658", "zipcode": "20306", "pop": 552433, "st": "DC", "county": "District of Columbia", "state": "District Of Columbia", "lat": "38.8951118", "timezone": "America/New_York"}}, {"pk": 1678, "model": "geo.location", "fields": {"name": "Washington", "recruit": 0, "lon": "-77.0363658", "zipcode": "20307", "pop": 552433, "st": "DC", "county": "District of Columbia", "state": "District Of Columbia", "lat": "38.8951118", "timezone": "America/New_York"}}, {"pk": 1679, "model": "geo.location", "fields": {"name": "Washington", "recruit": 0, "lon": "-77.0363658", "zipcode": "20310", "pop": 552433, "st": "DC", "county": "District of Columbia", "state": "District Of Columbia", "lat": "38.8951118", "timezone": "America/New_York"}}, {"pk": 1680, "model": "geo.location", "fields": {"name": "Washington", "recruit": 0, "lon": "-77.0363658", "zipcode": "20314", "pop": 552433, "st": "DC", "county": "District of Columbia", "state": "District Of Columbia", "lat": "38.8951118", "timezone": "America/New_York"}}, {"pk": 1681, "model": "geo.location", "fields": {"name": "Washington", "recruit": 0, "lon": "-77.0363658", "zipcode": "20315", "pop": 552433, "st": "DC", "county": "District of Columbia", "state": "District Of Columbia", "lat": "38.8951118", "timezone": "America/New_York"}}, {"pk": 1682, "model": "geo.location", "fields": {"name": "Washington", "recruit": 0, "lon": "-77.0363658", "zipcode": "20317", "pop": 552433, "st": "DC", "county": "District of Columbia", "state": "District Of Columbia", "lat": "38.8951118", "timezone": "America/New_York"}}, {"pk": 1683, "model": "geo.location", "fields": {"name": "Washington", "recruit": 0, "lon": "-77.0363658", "zipcode": "20318", "pop": 552433, "st": "DC", "county": "District of Columbia", "state": "District Of Columbia", "lat": "38.8951118", "timezone": "America/New_York"}}, {"pk": 1684, "model": "geo.location", "fields": {"name": "Washington", "recruit": 0, "lon": "-77.0363658", "zipcode": "20319", "pop": 552433, "st": "DC", "county": "District of Columbia", "state": "District Of Columbia", "lat": "38.8951118", "timezone": "America/New_York"}}, {"pk": 1685, "model": "geo.location", "fields": {"name": "Washington", "recruit": 0, "lon": "-77.0363658", "zipcode": "20330", "pop": 552433, "st": "DC", "county": "District of Columbia", "state": "District Of Columbia", "lat": "38.8951118", "timezone": "America/New_York"}}, {"pk": 1686, "model": "geo.location", "fields": {"name": "Washington", "recruit": 0, "lon": "-77.0363658", "zipcode": "20332", "pop": 552433, "st": "DC", "county": "District of Columbia", "state": "District Of Columbia", "lat": "38.8951118", "timezone": "America/New_York"}}, {"pk": 1687, "model": "geo.location", "fields": {"name": "Washington", "recruit": 0, "lon": "-77.0363658", "zipcode": "20336", "pop": 552433, "st": "DC", "county": "District of Columbia", "state": "District Of Columbia", "lat": "38.8951118", "timezone": "America/New_York"}}, {"pk": 1688, "model": "geo.location", "fields": {"name": "Washington", "recruit": 0, "lon": "-77.0363658", "zipcode": "20337", "pop": 552433, "st": "DC", "county": "District of Columbia", "state": "District Of Columbia", "lat": "38.8951118", "timezone": "America/New_York"}}, {"pk": 1689, "model": "geo.location", "fields": {"name": "Washington", "recruit": 0, "lon": "-77.0363658", "zipcode": "20338", "pop": 552433, "st": "DC", "county": "District of Columbia", "state": "District Of Columbia", "lat": "38.8951118", "timezone": "America/New_York"}}, {"pk": 1690, "model": "geo.location", "fields": {"name": "Washington", "recruit": 0, "lon": "-77.0363658", "zipcode": "20340", "pop": 552433, "st": "DC", "county": "District of Columbia", "state": "District Of Columbia", "lat": "38.8951118", "timezone": "America/New_York"}}, {"pk": 1691, "model": "geo.location", "fields": {"name": "Washington", "recruit": 0, "lon": "-77.0363658", "zipcode": "20350", "pop": 552433, "st": "DC", "county": "District of Columbia", "state": "District Of Columbia", "lat": "38.8951118", "timezone": "America/New_York"}}, {"pk": 1692, "model": "geo.location", "fields": {"name": "Washington", "recruit": 0, "lon": "-77.0363658", "zipcode": "20370", "pop": 552433, "st": "DC", "county": "District of Columbia", "state": "District Of Columbia", "lat": "38.8951118", "timezone": "America/New_York"}}, {"pk": 1693, "model": "geo.location", "fields": {"name": "Washington", "recruit": 0, "lon": "-77.0363658", "zipcode": "20372", "pop": 552433, "st": "DC", "county": "District of Columbia", "state": "District Of Columbia", "lat": "38.8951118", "timezone": "America/New_York"}}, {"pk": 1694, "model": "geo.location", "fields": {"name": "Washington", "recruit": 0, "lon": "-77.0363658", "zipcode": "20373", "pop": 552433, "st": "DC", "county": "District of Columbia", "state": "District Of Columbia", "lat": "38.8951118", "timezone": "America/New_York"}}, {"pk": 1695, "model": "geo.location", "fields": {"name": "Washington", "recruit": 0, "lon": "-77.0363658", "zipcode": "20374", "pop": 552433, "st": "DC", "county": "District of Columbia", "state": "District Of Columbia", "lat": "38.8951118", "timezone": "America/New_York"}}, {"pk": 1696, "model": "geo.location", "fields": {"name": "Washington", "recruit": 0, "lon": "-77.0363658", "zipcode": "20375", "pop": 552433, "st": "DC", "county": "District of Columbia", "state": "District Of Columbia", "lat": "38.8951118", "timezone": "America/New_York"}}, {"pk": 1697, "model": "geo.location", "fields": {"name": "Washington", "recruit": 0, "lon": "-77.0363658", "zipcode": "20380", "pop": 552433, "st": "DC", "county": "District of Columbia", "state": "District Of Columbia", "lat": "38.8951118", "timezone": "America/New_York"}}, {"pk": 1698, "model": "geo.location", "fields": {"name": "Washington", "recruit": 0, "lon": "-77.0363658", "zipcode": "20388", "pop": 552433, "st": "DC", "county": "District of Columbia", "state": "District Of Columbia", "lat": "38.8951118", "timezone": "America/New_York"}}, {"pk": 1699, "model": "geo.location", "fields": {"name": "Washington", "recruit": 0, "lon": "-77.0363658", "zipcode": "20389", "pop": 552433, "st": "DC", "county": "District of Columbia", "state": "District Of Columbia", "lat": "38.8951118", "timezone": "America/New_York"}}, {"pk": 1700, "model": "geo.location", "fields": {"name": "Washington", "recruit": 0, "lon": "-77.0363658", "zipcode": "20390", "pop": 552433, "st": "DC", "county": "District of Columbia", "state": "District Of Columbia", "lat": "38.8951118", "timezone": "America/New_York"}}, {"pk": 1701, "model": "geo.location", "fields": {"name": "Washington", "recruit": 0, "lon": "-77.0363658", "zipcode": "20391", "pop": 552433, "st": "DC", "county": "District of Columbia", "state": "District Of Columbia", "lat": "38.8951118", "timezone": "America/New_York"}}, {"pk": 1702, "model": "geo.location", "fields": {"name": "Washington", "recruit": 0, "lon": "-77.0363658", "zipcode": "20392", "pop": 552433, "st": "DC", "county": "District of Columbia", "state": "District Of Columbia", "lat": "38.8951118", "timezone": "America/New_York"}}, {"pk": 1703, "model": "geo.location", "fields": {"name": "Washington", "recruit": 0, "lon": "-77.0363658", "zipcode": "20393", "pop": 552433, "st": "DC", "county": "District of Columbia", "state": "District Of Columbia", "lat": "38.8951118", "timezone": "America/New_York"}}, {"pk": 1704, "model": "geo.location", "fields": {"name": "Washington", "recruit": 0, "lon": "-77.0363658", "zipcode": "20394", "pop": 552433, "st": "DC", "county": "District of Columbia", "state": "District Of Columbia", "lat": "38.8951118", "timezone": "America/New_York"}}, {"pk": 1705, "model": "geo.location", "fields": {"name": "Washington", "recruit": 0, "lon": "-77.0363658", "zipcode": "20395", "pop": 552433, "st": "DC", "county": "District of Columbia", "state": "District Of Columbia", "lat": "38.8951118", "timezone": "America/New_York"}}, {"pk": 1706, "model": "geo.location", "fields": {"name": "Washington", "recruit": 0, "lon": "-77.0363658", "zipcode": "20398", "pop": 552433, "st": "DC", "county": "District of Columbia", "state": "District Of Columbia", "lat": "38.8951118", "timezone": "America/New_York"}}, {"pk": 1707, "model": "geo.location", "fields": {"name": "Washington", "recruit": 0, "lon": "-77.0363658", "zipcode": "20401", "pop": 552433, "st": "DC", "county": "District of Columbia", "state": "District Of Columbia", "lat": "38.8951118", "timezone": "America/New_York"}}, {"pk": 1708, "model": "geo.location", "fields": {"name": "Washington", "recruit": 0, "lon": "-77.0363658", "zipcode": "20402", "pop": 552433, "st": "DC", "county": "District of Columbia", "state": "District Of Columbia", "lat": "38.8951118", "timezone": "America/New_York"}}, {"pk": 1709, "model": "geo.location", "fields": {"name": "Washington", "recruit": 0, "lon": "-77.0363658", "zipcode": "20403", "pop": 552433, "st": "DC", "county": "District of Columbia", "state": "District Of Columbia", "lat": "38.8951118", "timezone": "America/New_York"}}, {"pk": 1710, "model": "geo.location", "fields": {"name": "Washington", "recruit": 0, "lon": "-77.0363658", "zipcode": "20404", "pop": 552433, "st": "DC", "county": "District of Columbia", "state": "District Of Columbia", "lat": "38.8951118", "timezone": "America/New_York"}}, {"pk": 1711, "model": "geo.location", "fields": {"name": "Washington", "recruit": 0, "lon": "-77.0363658", "zipcode": "20405", "pop": 552433, "st": "DC", "county": "District of Columbia", "state": "District Of Columbia", "lat": "38.8951118", "timezone": "America/New_York"}}, {"pk": 1712, "model": "geo.location", "fields": {"name": "Washington", "recruit": 0, "lon": "-77.0363658", "zipcode": "20406", "pop": 552433, "st": "DC", "county": "District of Columbia", "state": "District Of Columbia", "lat": "38.8951118", "timezone": "America/New_York"}}, {"pk": 1713, "model": "geo.location", "fields": {"name": "Washington", "recruit": 0, "lon": "-77.0363658", "zipcode": "20407", "pop": 552433, "st": "DC", "county": "District of Columbia", "state": "District Of Columbia", "lat": "38.8951118", "timezone": "America/New_York"}}, {"pk": 1714, "model": "geo.location", "fields": {"name": "Washington", "recruit": 0, "lon": "-77.0363658", "zipcode": "20408", "pop": 552433, "st": "DC", "county": "District of Columbia", "state": "District Of Columbia", "lat": "38.8951118", "timezone": "America/New_York"}}, {"pk": 1715, "model": "geo.location", "fields": {"name": "Washington", "recruit": 0, "lon": "-77.0363658", "zipcode": "20409", "pop": 552433, "st": "DC", "county": "District of Columbia", "state": "District Of Columbia", "lat": "38.8951118", "timezone": "America/New_York"}}, {"pk": 1716, "model": "geo.location", "fields": {"name": "Washington", "recruit": 0, "lon": "-77.0363658", "zipcode": "20410", "pop": 552433, "st": "DC", "county": "District of Columbia", "state": "District Of Columbia", "lat": "38.8951118", "timezone": "America/New_York"}}, {"pk": 1717, "model": "geo.location", "fields": {"name": "Washington", "recruit": 0, "lon": "-77.0363658", "zipcode": "20411", "pop": 552433, "st": "DC", "county": "District of Columbia", "state": "District Of Columbia", "lat": "38.8951118", "timezone": "America/New_York"}}, {"pk": 1718, "model": "geo.location", "fields": {"name": "Washington", "recruit": 0, "lon": "-77.0363658", "zipcode": "20412", "pop": 552433, "st": "DC", "county": "District of Columbia", "state": "District Of Columbia", "lat": "38.8951118", "timezone": "America/New_York"}}, {"pk": 1719, "model": "geo.location", "fields": {"name": "Washington", "recruit": 0, "lon": "-77.0363658", "zipcode": "20413", "pop": 552433, "st": "DC", "county": "District of Columbia", "state": "District Of Columbia", "lat": "38.8951118", "timezone": "America/New_York"}}, {"pk": 1720, "model": "geo.location", "fields": {"name": "Washington", "recruit": 0, "lon": "-77.0363658", "zipcode": "20414", "pop": 552433, "st": "DC", "county": "District of Columbia", "state": "District Of Columbia", "lat": "38.8951118", "timezone": "America/New_York"}}, {"pk": 1721, "model": "geo.location", "fields": {"name": "Washington", "recruit": 0, "lon": "-77.0363658", "zipcode": "20415", "pop": 552433, "st": "DC", "county": "District of Columbia", "state": "District Of Columbia", "lat": "38.8951118", "timezone": "America/New_York"}}, {"pk": 1722, "model": "geo.location", "fields": {"name": "Washington", "recruit": 0, "lon": "-77.0363658", "zipcode": "20416", "pop": 552433, "st": "DC", "county": "District of Columbia", "state": "District Of Columbia", "lat": "38.8951118", "timezone": "America/New_York"}}, {"pk": 1723, "model": "geo.location", "fields": {"name": "Washington", "recruit": 0, "lon": "-77.0363658", "zipcode": "20418", "pop": 552433, "st": "DC", "county": "District of Columbia", "state": "District Of Columbia", "lat": "38.8951118", "timezone": "America/New_York"}}, {"pk": 1724, "model": "geo.location", "fields": {"name": "Washington", "recruit": 0, "lon": "-77.0363658", "zipcode": "20419", "pop": 552433, "st": "DC", "county": "District of Columbia", "state": "District Of Columbia", "lat": "38.8951118", "timezone": "America/New_York"}}, {"pk": 1725, "model": "geo.location", "fields": {"name": "Washington", "recruit": 0, "lon": "-77.0363658", "zipcode": "20420", "pop": 552433, "st": "DC", "county": "District of Columbia", "state": "District Of Columbia", "lat": "38.8951118", "timezone": "America/New_York"}}, {"pk": 1726, "model": "geo.location", "fields": {"name": "Washington", "recruit": 0, "lon": "-77.0363658", "zipcode": "20421", "pop": 552433, "st": "DC", "county": "District of Columbia", "state": "District Of Columbia", "lat": "38.8951118", "timezone": "America/New_York"}}, {"pk": 1727, "model": "geo.location", "fields": {"name": "Washington", "recruit": 0, "lon": "-77.0363658", "zipcode": "20422", "pop": 552433, "st": "DC", "county": "District of Columbia", "state": "District Of Columbia", "lat": "38.8951118", "timezone": "America/New_York"}}, {"pk": 1728, "model": "geo.location", "fields": {"name": "Washington", "recruit": 0, "lon": "-77.0363658", "zipcode": "20423", "pop": 552433, "st": "DC", "county": "District of Columbia", "state": "District Of Columbia", "lat": "38.8951118", "timezone": "America/New_York"}}, {"pk": 1729, "model": "geo.location", "fields": {"name": "Washington", "recruit": 0, "lon": "-77.0363658", "zipcode": "20424", "pop": 552433, "st": "DC", "county": "District of Columbia", "state": "District Of Columbia", "lat": "38.8951118", "timezone": "America/New_York"}}, {"pk": 1730, "model": "geo.location", "fields": {"name": "Washington", "recruit": 0, "lon": "-77.0363658", "zipcode": "20425", "pop": 552433, "st": "DC", "county": "District of Columbia", "state": "District Of Columbia", "lat": "38.8951118", "timezone": "America/New_York"}}, {"pk": 1731, "model": "geo.location", "fields": {"name": "Washington", "recruit": 0, "lon": "-77.0363658", "zipcode": "20426", "pop": 552433, "st": "DC", "county": "District of Columbia", "state": "District Of Columbia", "lat": "38.8951118", "timezone": "America/New_York"}}, {"pk": 1732, "model": "geo.location", "fields": {"name": "Washington", "recruit": 0, "lon": "-77.0363658", "zipcode": "20427", "pop": 552433, "st": "DC", "county": "District of Columbia", "state": "District Of Columbia", "lat": "38.8951118", "timezone": "America/New_York"}}, {"pk": 1733, "model": "geo.location", "fields": {"name": "Washington", "recruit": 0, "lon": "-77.0363658", "zipcode": "20428", "pop": 552433, "st": "DC", "county": "District of Columbia", "state": "District Of Columbia", "lat": "38.8951118", "timezone": "America/New_York"}}, {"pk": 1734, "model": "geo.location", "fields": {"name": "Washington", "recruit": 0, "lon": "-77.0363658", "zipcode": "20429", "pop": 552433, "st": "DC", "county": "District of Columbia", "state": "District Of Columbia", "lat": "38.8951118", "timezone": "America/New_York"}}, {"pk": 1735, "model": "geo.location", "fields": {"name": "Washington", "recruit": 0, "lon": "-77.0363658", "zipcode": "20431", "pop": 552433, "st": "DC", "county": "District of Columbia", "state": "District Of Columbia", "lat": "38.8951118", "timezone": "America/New_York"}}, {"pk": 1736, "model": "geo.location", "fields": {"name": "Washington", "recruit": 0, "lon": "-77.0363658", "zipcode": "20433", "pop": 552433, "st": "DC", "county": "District of Columbia", "state": "District Of Columbia", "lat": "38.8951118", "timezone": "America/New_York"}}, {"pk": 1737, "model": "geo.location", "fields": {"name": "Washington", "recruit": 0, "lon": "-77.0363658", "zipcode": "20434", "pop": 552433, "st": "DC", "county": "District of Columbia", "state": "District Of Columbia", "lat": "38.8951118", "timezone": "America/New_York"}}, {"pk": 1738, "model": "geo.location", "fields": {"name": "Washington", "recruit": 0, "lon": "-77.0363658", "zipcode": "20435", "pop": 552433, "st": "DC", "county": "District of Columbia", "state": "District Of Columbia", "lat": "38.8951118", "timezone": "America/New_York"}}, {"pk": 1739, "model": "geo.location", "fields": {"name": "Washington", "recruit": 0, "lon": "-77.0363658", "zipcode": "20436", "pop": 552433, "st": "DC", "county": "District of Columbia", "state": "District Of Columbia", "lat": "38.8951118", "timezone": "America/New_York"}}, {"pk": 1740, "model": "geo.location", "fields": {"name": "Washington", "recruit": 0, "lon": "-77.0363658", "zipcode": "20437", "pop": 552433, "st": "DC", "county": "District of Columbia", "state": "District Of Columbia", "lat": "38.8951118", "timezone": "America/New_York"}}, {"pk": 1741, "model": "geo.location", "fields": {"name": "Washington", "recruit": 0, "lon": "-77.0363658", "zipcode": "20439", "pop": 552433, "st": "DC", "county": "District of Columbia", "state": "District Of Columbia", "lat": "38.8951118", "timezone": "America/New_York"}}, {"pk": 1742, "model": "geo.location", "fields": {"name": "Washington", "recruit": 0, "lon": "-77.0363658", "zipcode": "20440", "pop": 552433, "st": "DC", "county": "District of Columbia", "state": "District Of Columbia", "lat": "38.8951118", "timezone": "America/New_York"}}, {"pk": 1743, "model": "geo.location", "fields": {"name": "Washington", "recruit": 0, "lon": "-77.0363658", "zipcode": "20441", "pop": 552433, "st": "DC", "county": "District of Columbia", "state": "District Of Columbia", "lat": "38.8951118", "timezone": "America/New_York"}}, {"pk": 1744, "model": "geo.location", "fields": {"name": "Washington", "recruit": 0, "lon": "-77.0363658", "zipcode": "20442", "pop": 552433, "st": "DC", "county": "District of Columbia", "state": "District Of Columbia", "lat": "38.8951118", "timezone": "America/New_York"}}, {"pk": 1745, "model": "geo.location", "fields": {"name": "Washington", "recruit": 0, "lon": "-77.0363658", "zipcode": "20444", "pop": 552433, "st": "DC", "county": "District of Columbia", "state": "District Of Columbia", "lat": "38.8951118", "timezone": "America/New_York"}}, {"pk": 1746, "model": "geo.location", "fields": {"name": "Washington", "recruit": 0, "lon": "-77.0363658", "zipcode": "20447", "pop": 552433, "st": "DC", "county": "District of Columbia", "state": "District Of Columbia", "lat": "38.8951118", "timezone": "America/New_York"}}, {"pk": 1747, "model": "geo.location", "fields": {"name": "Washington", "recruit": 0, "lon": "-77.0363658", "zipcode": "20451", "pop": 552433, "st": "DC", "county": "District of Columbia", "state": "District Of Columbia", "lat": "38.8951118", "timezone": "America/New_York"}}, {"pk": 1748, "model": "geo.location", "fields": {"name": "Washington", "recruit": 0, "lon": "-77.0363658", "zipcode": "20453", "pop": 552433, "st": "DC", "county": "District of Columbia", "state": "District Of Columbia", "lat": "38.8951118", "timezone": "America/New_York"}}, {"pk": 1749, "model": "geo.location", "fields": {"name": "Washington", "recruit": 0, "lon": "-77.0363658", "zipcode": "20456", "pop": 552433, "st": "DC", "county": "District of Columbia", "state": "District Of Columbia", "lat": "38.8951118", "timezone": "America/New_York"}}, {"pk": 1750, "model": "geo.location", "fields": {"name": "Washington", "recruit": 0, "lon": "-77.0363658", "zipcode": "20460", "pop": 552433, "st": "DC", "county": "District of Columbia", "state": "District Of Columbia", "lat": "38.8951118", "timezone": "America/New_York"}}, {"pk": 1751, "model": "geo.location", "fields": {"name": "Washington", "recruit": 0, "lon": "-77.0363658", "zipcode": "20463", "pop": 552433, "st": "DC", "county": "District of Columbia", "state": "District Of Columbia", "lat": "38.8951118", "timezone": "America/New_York"}}, {"pk": 1752, "model": "geo.location", "fields": {"name": "Washington", "recruit": 0, "lon": "-77.0363658", "zipcode": "20468", "pop": 552433, "st": "DC", "county": "District of Columbia", "state": "District Of Columbia", "lat": "38.8951118", "timezone": "America/New_York"}}, {"pk": 1753, "model": "geo.location", "fields": {"name": "Washington", "recruit": 0, "lon": "-77.0363658", "zipcode": "20469", "pop": 552433, "st": "DC", "county": "District of Columbia", "state": "District Of Columbia", "lat": "38.8951118", "timezone": "America/New_York"}}, {"pk": 1754, "model": "geo.location", "fields": {"name": "Washington", "recruit": 0, "lon": "-77.0363658", "zipcode": "20470", "pop": 552433, "st": "DC", "county": "District of Columbia", "state": "District Of Columbia", "lat": "38.8951118", "timezone": "America/New_York"}}, {"pk": 1755, "model": "geo.location", "fields": {"name": "Washington", "recruit": 0, "lon": "-77.0363658", "zipcode": "20472", "pop": 552433, "st": "DC", "county": "District of Columbia", "state": "District Of Columbia", "lat": "38.8951118", "timezone": "America/New_York"}}, {"pk": 1756, "model": "geo.location", "fields": {"name": "Washington", "recruit": 0, "lon": "-77.0363658", "zipcode": "20500", "pop": 552433, "st": "DC", "county": "District of Columbia", "state": "District Of Columbia", "lat": "38.8951118", "timezone": "America/New_York"}}, {"pk": 1757, "model": "geo.location", "fields": {"name": "Washington", "recruit": 0, "lon": "-77.0363658", "zipcode": "20501", "pop": 552433, "st": "DC", "county": "District of Columbia", "state": "District Of Columbia", "lat": "38.8951118", "timezone": "America/New_York"}}, {"pk": 1758, "model": "geo.location", "fields": {"name": "Washington", "recruit": 0, "lon": "-77.0363658", "zipcode": "20502", "pop": 552433, "st": "DC", "county": "District of Columbia", "state": "District Of Columbia", "lat": "38.8951118", "timezone": "America/New_York"}}, {"pk": 1759, "model": "geo.location", "fields": {"name": "Washington", "recruit": 0, "lon": "-77.0363658", "zipcode": "20503", "pop": 552433, "st": "DC", "county": "District of Columbia", "state": "District Of Columbia", "lat": "38.8951118", "timezone": "America/New_York"}}, {"pk": 1760, "model": "geo.location", "fields": {"name": "Washington", "recruit": 0, "lon": "-77.0363658", "zipcode": "20504", "pop": 552433, "st": "DC", "county": "District of Columbia", "state": "District Of Columbia", "lat": "38.8951118", "timezone": "America/New_York"}}, {"pk": 1761, "model": "geo.location", "fields": {"name": "Washington", "recruit": 0, "lon": "-77.0363658", "zipcode": "20505", "pop": 552433, "st": "DC", "county": "District of Columbia", "state": "District Of Columbia", "lat": "38.8951118", "timezone": "America/New_York"}}, {"pk": 1762, "model": "geo.location", "fields": {"name": "Washington", "recruit": 0, "lon": "-77.0363658", "zipcode": "20506", "pop": 552433, "st": "DC", "county": "District of Columbia", "state": "District Of Columbia", "lat": "38.8951118", "timezone": "America/New_York"}}, {"pk": 1763, "model": "geo.location", "fields": {"name": "Washington", "recruit": 0, "lon": "-77.0363658", "zipcode": "20507", "pop": 552433, "st": "DC", "county": "District of Columbia", "state": "District Of Columbia", "lat": "38.8951118", "timezone": "America/New_York"}}, {"pk": 1764, "model": "geo.location", "fields": {"name": "Washington", "recruit": 0, "lon": "-77.0363658", "zipcode": "20508", "pop": 552433, "st": "DC", "county": "District of Columbia", "state": "District Of Columbia", "lat": "38.8951118", "timezone": "America/New_York"}}, {"pk": 1765, "model": "geo.location", "fields": {"name": "Washington", "recruit": 0, "lon": "-77.0363658", "zipcode": "20510", "pop": 552433, "st": "DC", "county": "District of Columbia", "state": "District Of Columbia", "lat": "38.8951118", "timezone": "America/New_York"}}, {"pk": 1766, "model": "geo.location", "fields": {"name": "Washington", "recruit": 0, "lon": "-77.0363658", "zipcode": "20515", "pop": 552433, "st": "DC", "county": "District of Columbia", "state": "District Of Columbia", "lat": "38.8951118", "timezone": "America/New_York"}}, {"pk": 1767, "model": "geo.location", "fields": {"name": "Washington", "recruit": 0, "lon": "-77.0363658", "zipcode": "20520", "pop": 552433, "st": "DC", "county": "District of Columbia", "state": "District Of Columbia", "lat": "38.8951118", "timezone": "America/New_York"}}, {"pk": 1768, "model": "geo.location", "fields": {"name": "Washington", "recruit": 0, "lon": "-77.0363658", "zipcode": "20521", "pop": 552433, "st": "DC", "county": "District of Columbia", "state": "District Of Columbia", "lat": "38.8951118", "timezone": "America/New_York"}}, {"pk": 1769, "model": "geo.location", "fields": {"name": "Washington", "recruit": 0, "lon": "-77.0363658", "zipcode": "20522", "pop": 552433, "st": "DC", "county": "District of Columbia", "state": "District Of Columbia", "lat": "38.8951118", "timezone": "America/New_York"}}, {"pk": 1770, "model": "geo.location", "fields": {"name": "Washington", "recruit": 0, "lon": "-77.0363658", "zipcode": "20523", "pop": 552433, "st": "DC", "county": "District of Columbia", "state": "District Of Columbia", "lat": "38.8951118", "timezone": "America/New_York"}}, {"pk": 1771, "model": "geo.location", "fields": {"name": "Washington", "recruit": 0, "lon": "-77.0363658", "zipcode": "20524", "pop": 552433, "st": "DC", "county": "District of Columbia", "state": "District Of Columbia", "lat": "38.8951118", "timezone": "America/New_York"}}, {"pk": 1772, "model": "geo.location", "fields": {"name": "Washington", "recruit": 0, "lon": "-77.0363658", "zipcode": "20525", "pop": 552433, "st": "DC", "county": "District of Columbia", "state": "District Of Columbia", "lat": "38.8951118", "timezone": "America/New_York"}}, {"pk": 1773, "model": "geo.location", "fields": {"name": "Washington", "recruit": 0, "lon": "-77.0363658", "zipcode": "20526", "pop": 552433, "st": "DC", "county": "District of Columbia", "state": "District Of Columbia", "lat": "38.8951118", "timezone": "America/New_York"}}, {"pk": 1774, "model": "geo.location", "fields": {"name": "Washington", "recruit": 0, "lon": "-77.0363658", "zipcode": "20527", "pop": 552433, "st": "DC", "county": "District of Columbia", "state": "District Of Columbia", "lat": "38.8951118", "timezone": "America/New_York"}}, {"pk": 1775, "model": "geo.location", "fields": {"name": "Washington", "recruit": 0, "lon": "-77.0363658", "zipcode": "20530", "pop": 552433, "st": "DC", "county": "District of Columbia", "state": "District Of Columbia", "lat": "38.8951118", "timezone": "America/New_York"}}, {"pk": 1776, "model": "geo.location", "fields": {"name": "Washington", "recruit": 0, "lon": "-77.0363658", "zipcode": "20531", "pop": 552433, "st": "DC", "county": "District of Columbia", "state": "District Of Columbia", "lat": "38.8951118", "timezone": "America/New_York"}}, {"pk": 1777, "model": "geo.location", "fields": {"name": "Washington", "recruit": 0, "lon": "-77.0363658", "zipcode": "20532", "pop": 552433, "st": "DC", "county": "District of Columbia", "state": "District Of Columbia", "lat": "38.8951118", "timezone": "America/New_York"}}, {"pk": 1778, "model": "geo.location", "fields": {"name": "Washington", "recruit": 0, "lon": "-77.0363658", "zipcode": "20533", "pop": 552433, "st": "DC", "county": "District of Columbia", "state": "District Of Columbia", "lat": "38.8951118", "timezone": "America/New_York"}}, {"pk": 1779, "model": "geo.location", "fields": {"name": "Washington", "recruit": 0, "lon": "-77.0363658", "zipcode": "20534", "pop": 552433, "st": "DC", "county": "District of Columbia", "state": "District Of Columbia", "lat": "38.8951118", "timezone": "America/New_York"}}, {"pk": 1780, "model": "geo.location", "fields": {"name": "Washington", "recruit": 0, "lon": "-77.0363658", "zipcode": "20535", "pop": 552433, "st": "DC", "county": "District of Columbia", "state": "District Of Columbia", "lat": "38.8951118", "timezone": "America/New_York"}}, {"pk": 1781, "model": "geo.location", "fields": {"name": "Washington", "recruit": 0, "lon": "-77.0363658", "zipcode": "20536", "pop": 552433, "st": "DC", "county": "District of Columbia", "state": "District Of Columbia", "lat": "38.8951118", "timezone": "America/New_York"}}, {"pk": 1782, "model": "geo.location", "fields": {"name": "Washington", "recruit": 0, "lon": "-77.0363658", "zipcode": "20537", "pop": 552433, "st": "DC", "county": "District of Columbia", "state": "District Of Columbia", "lat": "38.8951118", "timezone": "America/New_York"}}, {"pk": 1783, "model": "geo.location", "fields": {"name": "Washington", "recruit": 0, "lon": "-77.0363658", "zipcode": "20538", "pop": 552433, "st": "DC", "county": "District of Columbia", "state": "District Of Columbia", "lat": "38.8951118", "timezone": "America/New_York"}}, {"pk": 1784, "model": "geo.location", "fields": {"name": "Washington", "recruit": 0, "lon": "-77.0363658", "zipcode": "20539", "pop": 552433, "st": "DC", "county": "District of Columbia", "state": "District Of Columbia", "lat": "38.8951118", "timezone": "America/New_York"}}, {"pk": 1785, "model": "geo.location", "fields": {"name": "Washington", "recruit": 0, "lon": "-77.0363658", "zipcode": "20540", "pop": 552433, "st": "DC", "county": "District of Columbia", "state": "District Of Columbia", "lat": "38.8951118", "timezone": "America/New_York"}}, {"pk": 1786, "model": "geo.location", "fields": {"name": "Washington", "recruit": 0, "lon": "-77.0363658", "zipcode": "20541", "pop": 552433, "st": "DC", "county": "District of Columbia", "state": "District Of Columbia", "lat": "38.8951118", "timezone": "America/New_York"}}, {"pk": 1787, "model": "geo.location", "fields": {"name": "Washington", "recruit": 0, "lon": "-77.0363658", "zipcode": "20542", "pop": 552433, "st": "DC", "county": "District of Columbia", "state": "District Of Columbia", "lat": "38.8951118", "timezone": "America/New_York"}}, {"pk": 1788, "model": "geo.location", "fields": {"name": "Washington", "recruit": 0, "lon": "-77.0363658", "zipcode": "20543", "pop": 552433, "st": "DC", "county": "District of Columbia", "state": "District Of Columbia", "lat": "38.8951118", "timezone": "America/New_York"}}, {"pk": 1789, "model": "geo.location", "fields": {"name": "Washington", "recruit": 0, "lon": "-77.0363658", "zipcode": "20544", "pop": 552433, "st": "DC", "county": "District of Columbia", "state": "District Of Columbia", "lat": "38.8951118", "timezone": "America/New_York"}}, {"pk": 1790, "model": "geo.location", "fields": {"name": "Washington", "recruit": 0, "lon": "-77.0363658", "zipcode": "20546", "pop": 552433, "st": "DC", "county": "District of Columbia", "state": "District Of Columbia", "lat": "38.8951118", "timezone": "America/New_York"}}, {"pk": 1791, "model": "geo.location", "fields": {"name": "Washington", "recruit": 0, "lon": "-77.0363658", "zipcode": "20547", "pop": 552433, "st": "DC", "county": "District of Columbia", "state": "District Of Columbia", "lat": "38.8951118", "timezone": "America/New_York"}}, {"pk": 1792, "model": "geo.location", "fields": {"name": "Washington", "recruit": 0, "lon": "-77.0363658", "zipcode": "20548", "pop": 552433, "st": "DC", "county": "District of Columbia", "state": "District Of Columbia", "lat": "38.8951118", "timezone": "America/New_York"}}, {"pk": 1793, "model": "geo.location", "fields": {"name": "Washington", "recruit": 0, "lon": "-77.0363658", "zipcode": "20549", "pop": 552433, "st": "DC", "county": "District of Columbia", "state": "District Of Columbia", "lat": "38.8951118", "timezone": "America/New_York"}}, {"pk": 1794, "model": "geo.location", "fields": {"name": "Washington", "recruit": 0, "lon": "-77.0363658", "zipcode": "20550", "pop": 552433, "st": "DC", "county": "District of Columbia", "state": "District Of Columbia", "lat": "38.8951118", "timezone": "America/New_York"}}, {"pk": 1795, "model": "geo.location", "fields": {"name": "Washington", "recruit": 0, "lon": "-77.0363658", "zipcode": "20551", "pop": 552433, "st": "DC", "county": "District of Columbia", "state": "District Of Columbia", "lat": "38.8951118", "timezone": "America/New_York"}}, {"pk": 1796, "model": "geo.location", "fields": {"name": "Washington", "recruit": 0, "lon": "-77.0363658", "zipcode": "20552", "pop": 552433, "st": "DC", "county": "District of Columbia", "state": "District Of Columbia", "lat": "38.8951118", "timezone": "America/New_York"}}, {"pk": 1797, "model": "geo.location", "fields": {"name": "Washington", "recruit": 0, "lon": "-77.0363658", "zipcode": "20553", "pop": 552433, "st": "DC", "county": "District of Columbia", "state": "District Of Columbia", "lat": "38.8951118", "timezone": "America/New_York"}}, {"pk": 1798, "model": "geo.location", "fields": {"name": "Washington", "recruit": 0, "lon": "-77.0363658", "zipcode": "20554", "pop": 552433, "st": "DC", "county": "District of Columbia", "state": "District Of Columbia", "lat": "38.8951118", "timezone": "America/New_York"}}, {"pk": 1799, "model": "geo.location", "fields": {"name": "Washington", "recruit": 0, "lon": "-77.0363658", "zipcode": "20555", "pop": 552433, "st": "DC", "county": "District of Columbia", "state": "District Of Columbia", "lat": "38.8951118", "timezone": "America/New_York"}}, {"pk": 1800, "model": "geo.location", "fields": {"name": "Washington", "recruit": 0, "lon": "-77.0363658", "zipcode": "20557", "pop": 552433, "st": "DC", "county": "District of Columbia", "state": "District Of Columbia", "lat": "38.8951118", "timezone": "America/New_York"}}, {"pk": 1801, "model": "geo.location", "fields": {"name": "Washington", "recruit": 0, "lon": "-77.0363658", "zipcode": "20558", "pop": 552433, "st": "DC", "county": "District of Columbia", "state": "District Of Columbia", "lat": "38.8951118", "timezone": "America/New_York"}}, {"pk": 1802, "model": "geo.location", "fields": {"name": "Washington", "recruit": 0, "lon": "-77.0363658", "zipcode": "20559", "pop": 552433, "st": "DC", "county": "District of Columbia", "state": "District Of Columbia", "lat": "38.8951118", "timezone": "America/New_York"}}, {"pk": 1803, "model": "geo.location", "fields": {"name": "Washington", "recruit": 0, "lon": "-77.0363658", "zipcode": "20560", "pop": 552433, "st": "DC", "county": "District of Columbia", "state": "District Of Columbia", "lat": "38.8951118", "timezone": "America/New_York"}}, {"pk": 1804, "model": "geo.location", "fields": {"name": "Washington", "recruit": 0, "lon": "-77.0363658", "zipcode": "20565", "pop": 552433, "st": "DC", "county": "District of Columbia", "state": "District Of Columbia", "lat": "38.8951118", "timezone": "America/New_York"}}, {"pk": 1805, "model": "geo.location", "fields": {"name": "Washington", "recruit": 0, "lon": "-77.0363658", "zipcode": "20566", "pop": 552433, "st": "DC", "county": "District of Columbia", "state": "District Of Columbia", "lat": "38.8951118", "timezone": "America/New_York"}}, {"pk": 1806, "model": "geo.location", "fields": {"name": "Washington", "recruit": 0, "lon": "-77.0363658", "zipcode": "20570", "pop": 552433, "st": "DC", "county": "District of Columbia", "state": "District Of Columbia", "lat": "38.8951118", "timezone": "America/New_York"}}, {"pk": 1807, "model": "geo.location", "fields": {"name": "Washington", "recruit": 0, "lon": "-77.0363658", "zipcode": "20571", "pop": 552433, "st": "DC", "county": "District of Columbia", "state": "District Of Columbia", "lat": "38.8951118", "timezone": "America/New_York"}}, {"pk": 1808, "model": "geo.location", "fields": {"name": "Washington", "recruit": 0, "lon": "-77.0363658", "zipcode": "20572", "pop": 552433, "st": "DC", "county": "District of Columbia", "state": "District Of Columbia", "lat": "38.8951118", "timezone": "America/New_York"}}, {"pk": 1809, "model": "geo.location", "fields": {"name": "Washington", "recruit": 0, "lon": "-77.0363658", "zipcode": "20573", "pop": 552433, "st": "DC", "county": "District of Columbia", "state": "District Of Columbia", "lat": "38.8951118", "timezone": "America/New_York"}}, {"pk": 1810, "model": "geo.location", "fields": {"name": "Washington", "recruit": 0, "lon": "-77.0363658", "zipcode": "20575", "pop": 552433, "st": "DC", "county": "District of Columbia", "state": "District Of Columbia", "lat": "38.8951118", "timezone": "America/New_York"}}, {"pk": 1811, "model": "geo.location", "fields": {"name": "Washington", "recruit": 0, "lon": "-77.0363658", "zipcode": "20576", "pop": 552433, "st": "DC", "county": "District of Columbia", "state": "District Of Columbia", "lat": "38.8951118", "timezone": "America/New_York"}}, {"pk": 1812, "model": "geo.location", "fields": {"name": "Washington", "recruit": 0, "lon": "-77.0363658", "zipcode": "20577", "pop": 552433, "st": "DC", "county": "District of Columbia", "state": "District Of Columbia", "lat": "38.8951118", "timezone": "America/New_York"}}, {"pk": 1813, "model": "geo.location", "fields": {"name": "Washington", "recruit": 0, "lon": "-77.0363658", "zipcode": "20578", "pop": 552433, "st": "DC", "county": "District of Columbia", "state": "District Of Columbia", "lat": "38.8951118", "timezone": "America/New_York"}}, {"pk": 1814, "model": "geo.location", "fields": {"name": "Washington", "recruit": 0, "lon": "-77.0363658", "zipcode": "20579", "pop": 552433, "st": "DC", "county": "District of Columbia", "state": "District Of Columbia", "lat": "38.8951118", "timezone": "America/New_York"}}, {"pk": 1815, "model": "geo.location", "fields": {"name": "Washington", "recruit": 0, "lon": "-77.0363658", "zipcode": "20580", "pop": 552433, "st": "DC", "county": "District of Columbia", "state": "District Of Columbia", "lat": "38.8951118", "timezone": "America/New_York"}}, {"pk": 1816, "model": "geo.location", "fields": {"name": "Washington", "recruit": 0, "lon": "-77.0363658", "zipcode": "20581", "pop": 552433, "st": "DC", "county": "District of Columbia", "state": "District Of Columbia", "lat": "38.8951118", "timezone": "America/New_York"}}, {"pk": 1817, "model": "geo.location", "fields": {"name": "Washington", "recruit": 0, "lon": "-77.0363658", "zipcode": "20585", "pop": 552433, "st": "DC", "county": "District of Columbia", "state": "District Of Columbia", "lat": "38.8951118", "timezone": "America/New_York"}}, {"pk": 1818, "model": "geo.location", "fields": {"name": "Washington", "recruit": 0, "lon": "-77.0363658", "zipcode": "20586", "pop": 552433, "st": "DC", "county": "District of Columbia", "state": "District Of Columbia", "lat": "38.8951118", "timezone": "America/New_York"}}, {"pk": 1819, "model": "geo.location", "fields": {"name": "Washington", "recruit": 0, "lon": "-77.0363658", "zipcode": "20590", "pop": 552433, "st": "DC", "county": "District of Columbia", "state": "District Of Columbia", "lat": "38.8951118", "timezone": "America/New_York"}}, {"pk": 1820, "model": "geo.location", "fields": {"name": "Washington", "recruit": 0, "lon": "-77.0363658", "zipcode": "20591", "pop": 552433, "st": "DC", "county": "District of Columbia", "state": "District Of Columbia", "lat": "38.8951118", "timezone": "America/New_York"}}, {"pk": 1821, "model": "geo.location", "fields": {"name": "Washington", "recruit": 0, "lon": "-77.0363658", "zipcode": "20593", "pop": 552433, "st": "DC", "county": "District of Columbia", "state": "District Of Columbia", "lat": "38.8951118", "timezone": "America/New_York"}}, {"pk": 1822, "model": "geo.location", "fields": {"name": "Washington", "recruit": 0, "lon": "-77.0363658", "zipcode": "20594", "pop": 552433, "st": "DC", "county": "District of Columbia", "state": "District Of Columbia", "lat": "38.8951118", "timezone": "America/New_York"}}, {"pk": 1823, "model": "geo.location", "fields": {"name": "Washington", "recruit": 0, "lon": "-77.0363658", "zipcode": "20597", "pop": 552433, "st": "DC", "county": "District of Columbia", "state": "District Of Columbia", "lat": "38.8951118", "timezone": "America/New_York"}}, {"pk": 1824, "model": "geo.location", "fields": {"name": "Washington", "recruit": 0, "lon": "-77.0363658", "zipcode": "20599", "pop": 552433, "st": "DC", "county": "District of Columbia", "state": "District Of Columbia", "lat": "38.8951118", "timezone": "America/New_York"}}]
